[
  {
    "id": "sz001",
    "name": "某某金融科技有限公司",
    "province": "广东省",
    "city": "深圳市",
    "address": "福田区某大厦",
    "lat": 22.543096,
    "lng": 114.057865,
    "description": "典型AB贷诈骗公司，诱导贷款、伪造担保合同",
    "status": "立案中",
    "reports": [
      {
        "content": "被骗 5 万元，对方称可无担保贷款，实际套路贷",
        "timestamp": "2025-07-26 10:21",
        "user": "匿名"
      }
    ]
  },
  {
    "id": "sz002",
    "name": "某某科技有限公司",
    "province": "广东省",
    "city": "深圳市",
    "address": "南山区某大厦",
    "lat": 22.543096,
    "lng": 114.057865,
    "description": "涉嫌虚假宣传，诱导用户贷款，后续无法联系",
    "status": "已关闭",
    "reports": [
      {
        "content": "被骗 3 万元，贷款后无法联系对方",
        "timestamp": "2025-07-27 14:30",
        "user": "匿名"
      }
    ]
  },
  {
    "id": "gz001",
    "name": "某某金融服务有限公司",
    "province": "广东省",
    "city": "广州市",
    "address": "天河区某大厦",
    "lat": 23.129163,
    "lng": 113.264435,
    "description": "提供虚假贷款服务，收取高额手续费后失联",
    "status": "立案中",
    "reports": [
      {
        "content": "被骗 8 万元，称可快速放款，实际套路贷",
        "timestamp": "2025-07-28 09:15",
        "user": "匿名"
      }
    ]
  },
  {
    "id": "gz002",
    "name": "某某网络科技有限公司",
    "province": "广东省",
    "city": "广州市",
    "address": "越秀区某大厦",
    "lat": 23.129163,
    "lng": 113.264435,
    "description": "涉嫌虚假宣传，诱导用户贷款，后续无法联系",
    "status": "已关闭",
    "reports": [
      {
        "content": "被骗 2 万元，贷款后无法联系对方",
        "timestamp": "2025-07-29 11:45",
        "user": "匿名"
      }
    ]
  },
  {
    "id": "zh001",
    "name": "某某金融科技有限公司",
    "province": "浙江省",
    "city": "杭州市",
    "address": "西湖区某大厦",
    "lat": 30.274085,
    "lng": 120.155070,
    "description": "提供虚假贷款服务，收取高额手续费后失联",
    "status": "立案中",
    "reports": [
      {
        "content": "被骗 6 万元，称可快速放款，实际套路贷",
        "timestamp": "2025-07-30 13:00",
        "user": "匿名"
      }
    ]
  },
  {
    "id": "zh002",
    "name": "某某网络科技有限公司",
    "province": "浙江省",
    "city": "杭州市",
    "address": "滨江区某大厦",
    "lat": 30.274085,
    "lng": 120.155070,
    "description": "涉嫌虚假宣传，诱导用户贷款，后续无法联系",
    "status": "已关闭",
    "reports": [
      {
        "content": "被骗 4 万元，贷款后无法联系对方",
        "timestamp": "2025-07-31 15:30",
        "user": "匿名"
      }
    ]
  },
  {
    "id": "sh001",
    "name": "某某金融服务有限公司",
    "province": "上海市",
    "city": "上海市",
    "address": "浦东新区某大厦",
    "lat": 31.230416,
    "lng": 121.473701,
    "description": "提供虚假贷款服务，收取高额手续费后失联",
    "status": "立案中",
    "reports": [
      {
        "content": "被骗 10 万元，称可快速放款，实际套路贷",
        "timestamp": "2025-08-01 16:45",
        "user": "匿名"
      }
    ]
  },
  {
    "id": "sh002",
    "name": "某某网络科技有限公司",
    "province": "上海市",
    "city": "上海市",
    "address": "徐汇区某大厦",
    "lat": 31.230416,
    "lng": 121.473701,
    "description": "涉嫌虚假宣传，诱导用户贷款，后续无法联系",
    "status": "已关闭",
    "reports": [
      {
        "content": "被骗 5 万元，贷款后无法联系对方",
        "timestamp": "2025-08-02 18:00",
        "user": "匿名"
      }
    ]
  }
]
